district,lat,lon,solar,wind
Hyderabad,17.38,78.48,5.8,4.2
Bangalore,12.97,77.59,5.6,3.8
Delhi,28.61,77.20,5.3,3.2
Mumbai,19.07,72.87,5.4,4.5
Chennai,13.08,80.27,5.9,3.7
Jaipur,26.91,75.78,6.3,3.9
Ahmedabad,23.02,72.57,6.1,4.1
Lucknow,26.85,80.94,5.2,3.4
Kolkata,22.57,88.36,5.1,3.3
Bhopal,23.25,77.41,5.7,3.6